[
    {
        "id": "1",
        "name": "Puskesmas Puspahiang",
        "address": "Puspahiang, Tasikmalaya, West Java, Indonesia",
        "latitude": "-7.408113733",
        "longitude": "108.0493673",
        "vac1": "1",
        "vac2": "1",
        "booster": "0",
        "astrazaneca": "0",
        "pfizer": "0",
        "sinovac": "300",
        "moderna": "0",
        "janssen": "0",
        "sinopharm": "0"
    },
    {
        "id": "2",
        "name": "Klinik Polres Tasikmalaya",
        "address": "Sukarindik, Tasikmalaya, West Java, Indonesia",
        "latitude": "-7.302484741",
        "longitude": "108.1960569",
        "vac1": "1",
        "vac2": "1",
        "booster": "0",
        "astrazaneca": "100",
        "pfizer": "0",
        "sinovac": "0",
        "moderna": "0",
        "janssen": "0",
        "sinopharm": "0"
    },
    {
        "id": "3",
        "name": "Puskesmas Sukarame",
        "address": "Sukarame, Tasikmalaya, West Java, Indonesia",
        "latitude": "-7.356706189",
        "longitude": "108.1334107",
        "vac1": "1",
        "vac2": "1",
        "booster": "0",
        "astrazaneca": "0",
        "pfizer": "0",
        "sinovac": "120",
        "moderna": "0",
        "janssen": "0",
        "sinopharm": "0"
    },
    {
        "id": "4",
        "name": "Klinik Zarra Medika",
        "address": "Jalan Hudaya, Tasikmalaya, West Java, Indonesia",
        "latitude": "-7.341704682",
        "longitude": "108.1359896",
        "vac1": "1",
        "vac2": "1",
        "booster": "0",
        "astrazaneca": "0",
        "pfizer": "0",
        "sinovac": "200",
        "moderna": "0",
        "janssen": "0",
        "sinopharm": "0"
    },
    {
        "id": "5",
        "name": "Puskesmas Leuwisari",
        "address": "Arjasari, Tasikmalaya, West Java, Indonesia",
        "latitude": "-7.335137899",
        "longitude": "108.1012665",
        "vac1": "1",
        "vac2": "1",
        "booster": "0",
        "astrazaneca": "100",
        "pfizer": "0",
        "sinovac": "0",
        "moderna": "0",
        "janssen": "0",
        "sinopharm": "0"
    },
    {
        "id": "6",
        "name": "Puskesmas Mangunreja",
        "address": "Mangunreja, Tasikmalaya, West Java, Indonesia",
        "latitude": "-7.36420436",
        "longitude": "108.102777",
        "vac1": "1",
        "vac2": "1",
        "booster": "0",
        "astrazaneca": "0",
        "pfizer": "0",
        "sinovac": "300",
        "moderna": "0",
        "janssen": "0",
        "sinopharm": "0"
    },
    {
        "id": "7",
        "name": "Puskesmas Singaparna",
        "address": "Singasari, Tasikmalaya, West Java, Indonesia",
        "latitude": "-7.349938804",
        "longitude": "108.111067",
        "vac1": "1",
        "vac2": "1",
        "booster": "0",
        "astrazaneca": "0",
        "pfizer": "0",
        "sinovac": "400",
        "moderna": "0",
        "janssen": "0",
        "sinopharm": "0"
    },
    {
        "id": "8",
        "name": "Klinik Arafa",
        "address": "Jalan Raya Timur Singaparna, Tasikmalaya, West Java, Indonesia",
        "latitude": "-7.345872189",
        "longitude": "108.1217619",
        "vac1": "1",
        "vac2": "1",
        "booster": "1",
        "astrazaneca": "200",
        "pfizer": "0",
        "sinovac": "0",
        "moderna": "300",
        "janssen": "0",
        "sinopharm": "0"
    },
    {
        "id": "9",
        "name": "Puskesmas Tineuwati",
        "address": "Raya Sentral, Tasikmalaya, West Java, Indonesia",
        "latitude": "-7.353155725",
        "longitude": "108.1049154",
        "vac1": "1",
        "vac2": "1",
        "booster": "1",
        "astrazaneca": "300",
        "pfizer": "0",
        "sinovac": "0",
        "moderna": "200",
        "janssen": "0",
        "sinopharm": "0"
    },
    {
        "id": "10",
        "name": "RSUD SMC",
        "address": "Cikunten, Tasikmalaya, West Java, Indonesia",
        "latitude": "-7.357325058",
        "longitude": "108.1061439",
        "vac1": "1",
        "vac2": "1",
        "booster": "0",
        "astrazaneca": "0",
        "pfizer": "0",
        "sinovac": "200",
        "moderna": "0",
        "janssen": "0",
        "sinopharm": "0"
    },
    {
        "id": "11",
        "name": "Puskesmas Sariawangi",
        "address": "Sariwangi, Tasikmalaya, West Java, Indonesia",
        "latitude": "-7.324530971",
        "longitude": "108.0775018",
        "vac1": "1",
        "vac2": "1",
        "booster": "1",
        "astrazaneca": "80",
        "pfizer": "0",
        "sinovac": "0",
        "moderna": "0",
        "janssen": "0",
        "sinopharm": "0"
    },
    {
        "id": "12",
        "name": "Puskesmas Cigalontang",
        "address": "Lengkongjaya, Tasikmalaya, West Java, Indonesia",
        "latitude": "-7.34650908",
        "longitude": "108.0332538",
        "vac1": "1",
        "vac2": "1",
        "booster": "1",
        "astrazaneca": "0",
        "pfizer": "0",
        "sinovac": "300",
        "moderna": "0",
        "janssen": "0",
        "sinopharm": "0"
    },
    {
        "id": "13",
        "name": "Puskesmas Salawu",
        "address": "Serang, Tasikmalaya, West Java, Indonesia",
        "latitude": "-7.37338144",
        "longitude": "108.0381755",
        "vac1": "1",
        "vac2": "1",
        "booster": "1",
        "astrazaneca": "0",
        "pfizer": "0",
        "sinovac": "280",
        "moderna": "0",
        "janssen": "0",
        "sinopharm": "0"
    },
    {
        "id": "14",
        "name": "Puskesmas Sukahening",
        "address": "Condong, Tasikmalaya, West Java, Indonesia",
        "latitude": "-7.199670074",
        "longitude": "108.1515353",
        "vac1": "1",
        "vac2": "1",
        "booster": "1",
        "astrazaneca": "90",
        "pfizer": "0",
        "sinovac": "0",
        "moderna": "0",
        "janssen": "0",
        "sinopharm": "0"
    },
    {
        "id": "15",
        "name": "Klinik BMC Ciawi",
        "address": "Kurniabakti, Tasikmalaya, West Java, Indonesia",
        "latitude": "-7.153757751",
        "longitude": "108.1452093",
        "vac1": "1",
        "vac2": "1",
        "booster": "0",
        "astrazaneca": "0",
        "pfizer": "0",
        "sinovac": "120",
        "moderna": "0",
        "janssen": "0",
        "sinopharm": "0"
    },
    {
        "id": "16",
        "name": "Puskesmas Jamanis",
        "address": "Tanjungmekar, Tasikmalaya, West Java, Indonesia",
        "latitude": "-7.182358033",
        "longitude": "108.1816185",
        "vac1": "1",
        "vac2": "1",
        "booster": "0",
        "astrazaneca": "20",
        "pfizer": "0",
        "sinovac": "0",
        "moderna": "0",
        "janssen": "0",
        "sinopharm": "0"
    },
    {
        "id": "17",
        "name": "Puskesmas Rajapolah",
        "address": "Manggungsari, Tasikmalaya, West Java, Indonesia",
        "latitude": "-7.208842423",
        "longitude": "108.1891716",
        "vac1": "1",
        "vac2": "1",
        "booster": "0",
        "astrazaneca": "0",
        "pfizer": "0",
        "sinovac": "420",
        "moderna": "0",
        "janssen": "0",
        "sinopharm": "0"
    },
    {
        "id": "18",
        "name": "Al-Idrisiyyah Medical Center",
        "address": "Jatihurip, Tasikmalaya, West Java, Indonesia",
        "latitude": "-7.263403696",
        "longitude": "108.1866048",
        "vac1": "1",
        "vac2": "1",
        "booster": "0",
        "astrazaneca": "0",
        "pfizer": "0",
        "sinovac": "200",
        "moderna": "0",
        "janssen": "0",
        "sinopharm": "0"
    },
    {
        "id": "19",
        "name": "Puskesmas Cisaruni",
        "address": "Mekarjaya, Tasikmalaya, West Java, Indonesia",
        "latitude": "-7.304611863",
        "longitude": "108.1241803",
        "vac1": "1",
        "vac2": "1",
        "booster": "0",
        "astrazaneca": "120",
        "pfizer": "0",
        "sinovac": "0",
        "moderna": "0",
        "janssen": "0",
        "sinopharm": "0"
    },
    {
        "id": "20",
        "name": "Puskesmas Sukaratu",
        "address": "Indrajaya, Tasikmalaya, West Java, Indonesia",
        "latitude": "-7.271657391",
        "longitude": "108.1437361",
        "vac1": "1",
        "vac2": "1",
        "booster": "0",
        "astrazaneca": "0",
        "pfizer": "0",
        "sinovac": "330",
        "moderna": "0",
        "janssen": "0",
        "sinopharm": "0"
    },
    {
        "id": "21",
        "name": "Puskesmas Cisayong",
        "address": "Sukasetia, Tasikmalaya, West Java, Indonesia",
        "latitude": "-7.25236075",
        "longitude": "108.1476888",
        "vac1": "1",
        "vac2": "1",
        "booster": "0",
        "astrazaneca": "0",
        "pfizer": "0",
        "sinovac": "500",
        "moderna": "0",
        "janssen": "0",
        "sinopharm": "0"
    },
    {
        "id": "22",
        "name": "Klinik Prarama Kaila II Tasik",
        "address": "Gunungsari, Tasikmalaya, West Java, Indonesia",
        "latitude": "-7.315262089",
        "longitude": "108.1532043",
        "vac1": "1",
        "vac2": "1",
        "booster": "1",
        "astrazaneca": "200",
        "pfizer": "0",
        "sinovac": "800",
        "moderna": "0",
        "janssen": "0",
        "sinopharm": "0"
    },
    {
        "id": "23",
        "name": "RSIA Respati Tasikmalaya",
        "address": "Cipawitra, Tasikmalaya, West Java, Indonesia",
        "latitude": "-7.334525825",
        "longitude": "108.1533268",
        "vac1": "1",
        "vac2": "1",
        "booster": "1",
        "astrazaneca": "210",
        "pfizer": "0",
        "sinovac": "0",
        "moderna": "0",
        "janssen": "0",
        "sinopharm": "0"
    },
    {
        "id": "24",
        "name": "Puskesmas Sukaresik",
        "address": "Banjarsari, Tasikmalaya, West Java, Indonesia",
        "latitude": "-7.15319765",
        "longitude": "108.1893431",
        "vac1": "1",
        "vac2": "1",
        "booster": "0",
        "astrazaneca": "0",
        "pfizer": "0",
        "sinovac": "1200",
        "moderna": "0",
        "janssen": "0",
        "sinopharm": "0"
    },
    {
        "id": "25",
        "name": "Puskesmas Pagerageung",
        "address": "Pagerageung, Tasikmalaya, West Java, Indonesia",
        "latitude": "-7.109559844",
        "longitude": "108.1625626",
        "vac1": "1",
        "vac2": "1",
        "booster": "1",
        "astrazaneca": "89",
        "pfizer": "0",
        "sinovac": "0",
        "moderna": "800",
        "janssen": "0",
        "sinopharm": "0"
    },
    {
        "id": "26",
        "name": "Puskesmas Kadipaten",
        "address": "Sukapada, Tasikmalaya, West Java, Indonesia",
        "latitude": "-7.115501229",
        "longitude": "108.1443665",
        "vac1": "1",
        "vac2": "1",
        "booster": "1",
        "astrazaneca": "0",
        "pfizer": "0",
        "sinovac": "300",
        "moderna": "300",
        "janssen": "0",
        "sinopharm": "0"
    },
    {
        "id": "27",
        "name": "Puskesmas Cipaptujah",
        "address": "Ciandum, Tasikmalaya, West Java, Indonesia",
        "latitude": "-7.713457773",
        "longitude": "108.0206888",
        "vac1": "1",
        "vac2": "1",
        "booster": "1",
        "astrazaneca": "0",
        "pfizer": "0",
        "sinovac": "800",
        "moderna": "0",
        "janssen": "0",
        "sinopharm": "0"
    },
    {
        "id": "28",
        "name": "Puskesmas Cikalong",
        "address": "Cidadali, Tasikmalaya, West Java, Indonesia",
        "latitude": "-7.727769575",
        "longitude": "108.2117622",
        "vac1": "1",
        "vac2": "1",
        "booster": "1",
        "astrazaneca": "100",
        "pfizer": "0",
        "sinovac": "0",
        "moderna": "0",
        "janssen": "0",
        "sinopharm": "0"
    },
    {
        "id": "29",
        "name": "Klinik Mentari",
        "address": "Panyiaran, Tasikmalaya, West Java, Indonesia",
        "latitude": "-7.705581421",
        "longitude": "108.1815498",
        "vac1": "1",
        "vac2": "1",
        "booster": "0",
        "astrazaneca": "0",
        "pfizer": "0",
        "sinovac": "400",
        "moderna": "0",
        "janssen": "0",
        "sinopharm": "0"
    },
    {
        "id": "30",
        "name": "Puskesmas Karangnunggal",
        "address": "Karangmekar, Tasikmalaya, West Java, Indonesia",
        "latitude": "-7.618214505",
        "longitude": "108.1357746",
        "vac1": "1",
        "vac2": "1",
        "booster": "0",
        "astrazaneca": "230",
        "pfizer": "0",
        "sinovac": "0",
        "moderna": "0",
        "janssen": "0",
        "sinopharm": "0"
    },
    {
        "id": "31",
        "name": "Puskesmas Bojongasih",
        "address": "Girijaya, Tasikmalaya, West Java, Indonesia",
        "latitude": "-7.57543976",
        "longitude": "108.130968",
        "vac1": "1",
        "vac2": "1",
        "booster": "0",
        "astrazaneca": "0",
        "pfizer": "0",
        "sinovac": "300",
        "moderna": "0",
        "janssen": "0",
        "sinopharm": "0"
    },
    {
        "id": "32",
        "name": "Puskesmas Bantarkalong",
        "address": "Hegarwangi, Tasikmalaya, West Java, Indonesia",
        "latitude": "-7.615194176",
        "longitude": "108.1048755",
        "vac1": "1",
        "vac2": "1",
        "booster": "0",
        "astrazaneca": "0",
        "pfizer": "0",
        "sinovac": "200",
        "moderna": "0",
        "janssen": "0",
        "sinopharm": "0"
    },
    {
        "id": "33",
        "name": "Puskesmas Pancatengah",
        "address": "Neglasari, Tasikmalaya, West Java, Indonesia",
        "latitude": "-7.609525521",
        "longitude": "108.339224",
        "vac1": "1",
        "vac2": "1",
        "booster": "0",
        "astrazaneca": "70",
        "pfizer": "0",
        "sinovac": "0",
        "moderna": "0",
        "janssen": "0",
        "sinopharm": "0"
    },
    {
        "id": "34",
        "name": "Puskesmas Cikatomas",
        "address": "Pakemitan, Tasikmalaya, West Java, Indonesia",
        "latitude": "-7.606081036",
        "longitude": "108.2555107",
        "vac1": "1",
        "vac2": "1",
        "booster": "0",
        "astrazaneca": "0",
        "pfizer": "0",
        "sinovac": "100",
        "moderna": "0",
        "janssen": "0",
        "sinopharm": "0"
    },
    {
        "id": "35",
        "name": "Puskesmas Karangjaya",
        "address": "Sirnajaya, Tasikmalaya, West Java, Indonesia",
        "latitude": "-7.440535285",
        "longitude": "108.4167344",
        "vac1": "1",
        "vac2": "1",
        "booster": "0",
        "astrazaneca": "0",
        "pfizer": "0",
        "sinovac": "120",
        "moderna": "0",
        "janssen": "0",
        "sinopharm": "0"
    },
    {
        "id": "36",
        "name": "Puskesmas Parungponteng",
        "address": "Barumekar, Tasikmalaya, West Java, Indonesia",
        "latitude": "-7.489454679",
        "longitude": "108.15287",
        "vac1": "1",
        "vac2": "1",
        "booster": "1",
        "astrazaneca": "100",
        "pfizer": "0",
        "sinovac": "0",
        "moderna": "0",
        "janssen": "0",
        "sinopharm": "0"
    },
    {
        "id": "37",
        "name": "Klinik Alabi Medika",
        "address": "Mandalawangi, Tasikmalaya, West Java, Indonesia",
        "latitude": "-7.486150614",
        "longitude": "108.2535531",
        "vac1": "1",
        "vac2": "1",
        "booster": "1",
        "astrazaneca": "100",
        "pfizer": "0",
        "sinovac": "0",
        "moderna": "0",
        "janssen": "0",
        "sinopharm": "0"
    },
    {
        "id": "38",
        "name": "Puskesmas Salopa",
        "address": "Jalan Raya Papayan Cikalong, Tasikmalaya, West Java, Indonesia",
        "latitude": "-7.515965258",
        "longitude": "108.2715255",
        "vac1": "1",
        "vac2": "1",
        "booster": "0",
        "astrazaneca": "0",
        "pfizer": "0",
        "sinovac": "200",
        "moderna": "0",
        "janssen": "0",
        "sinopharm": "0"
    },
    {
        "id": "39",
        "name": "Klinik Pratama Kamulyan",
        "address": "Kamulyan, Tasikmalaya, West Java, Indonesia",
        "latitude": "-7.35064776",
        "longitude": "108.2888536",
        "vac1": "1",
        "vac2": "1",
        "booster": "1",
        "astrazaneca": "120",
        "pfizer": "0",
        "sinovac": "0",
        "moderna": "0",
        "janssen": "0",
        "sinopharm": "0"
    },
    {
        "id": "40",
        "name": "Puskesmas Gunung Tanjung",
        "address": "Cilangkap, Tasikmalaya, West Java, Indonesia",
        "latitude": "-7.356260008",
        "longitude": "108.3204336",
        "vac1": "1",
        "vac2": "1",
        "booster": "1",
        "astrazaneca": "0",
        "pfizer": "0",
        "sinovac": "300",
        "moderna": "0",
        "janssen": "0",
        "sinopharm": "0"
    },
    {
        "id": "41",
        "name": "Puskesmas Manonjaya",
        "address": "Margaluyu, Tasikmalaya, West Java, Indonesia",
        "latitude": "-7.345023467",
        "longitude": "108.3085579",
        "vac1": "1",
        "vac2": "1",
        "booster": "1",
        "astrazaneca": "0",
        "pfizer": "0",
        "sinovac": "300",
        "moderna": "0",
        "janssen": "0",
        "sinopharm": "0"
    },
    {
        "id": "42",
        "name": "Puskesmas Sodonghilir",
        "address": "Cikalong, Tasikmalaya, West Java, Indonesia",
        "latitude": "-7.474347957",
        "longitude": "108.0521926",
        "vac1": "1",
        "vac2": "1",
        "booster": "1",
        "astrazaneca": "80",
        "pfizer": "0",
        "sinovac": "0",
        "moderna": "0",
        "janssen": "0",
        "sinopharm": "0"
    },
    {
        "id": "43",
        "name": "Puskesmas Bojonggambir",
        "address": "Mangkonjaya, Tasikmalaya, West Java, Indonesia",
        "latitude": "-7.497657854",
        "longitude": "107.9782477",
        "vac1": "1",
        "vac2": "1",
        "booster": "0",
        "astrazaneca": "0",
        "pfizer": "0",
        "sinovac": "500",
        "moderna": "0",
        "janssen": "0",
        "sinopharm": "0"
    },
    {
        "id": "44",
        "name": "Puskesmas Taraju",
        "address": "Taraju, Tasikmalaya, West Java, Indonesia",
        "latitude": "-7.455956064",
        "longitude": "107.9819227",
        "vac1": "1",
        "vac2": "1",
        "booster": "0",
        "astrazaneca": "400",
        "pfizer": "0",
        "sinovac": "0",
        "moderna": "0",
        "janssen": "0",
        "sinopharm": "0"
    },
    {
        "id": "45",
        "name": "Poltekkes Kemenkes Tasik",
        "address": "Kahuripan, Tasikmalaya, West Java, Indonesia",
        "latitude": "-7.34769847",
        "longitude": "108.2323144",
        "vac1": "1",
        "vac2": "1",
        "booster": "0",
        "astrazaneca": "0",
        "pfizer": "0",
        "sinovac": "500",
        "moderna": "0",
        "janssen": "0",
        "sinopharm": "0"
    },
    {
        "id": "46",
        "name": "Puskesmas Sukalksana",
        "address": "Sukamahi, Tasikmalaya, West Java, Indonesia",
        "latitude": "-7.285067968",
        "longitude": "108.1711985",
        "vac1": "1",
        "vac2": "1",
        "booster": "0",
        "astrazaneca": "0",
        "pfizer": "0",
        "sinovac": "320",
        "moderna": "0",
        "janssen": "0",
        "sinopharm": "0"
    },
    {
        "id": "47",
        "name": "Puskesmas Sungkali",
        "address": "Kersanagara, Tasikmalaya, West Java, Indonesia",
        "latitude": "-7.37006365",
        "longitude": "108.2493865",
        "vac1": "1",
        "vac2": "1",
        "booster": "0",
        "astrazaneca": "120",
        "pfizer": "0",
        "sinovac": "0",
        "moderna": "0",
        "janssen": "0",
        "sinopharm": "0"
    },
    {
        "id": "48",
        "name": "Puskesmas Kersanegara",
        "address": "Setiajaya, Tasikmalaya, West Java, Indonesia",
        "latitude": "-7.353720005",
        "longitude": "108.2401924",
        "vac1": "1",
        "vac2": "1",
        "booster": "0",
        "astrazaneca": "0",
        "pfizer": "0",
        "sinovac": "200",
        "moderna": "0",
        "janssen": "0",
        "sinopharm": "0"
    },
    {
        "id": "49",
        "name": "RS TMC",
        "address": "Jl. Cicurug Bata No. 206, Tasikmalaya, West Java 46125, Indonesia",
        "latitude": "-7.338892125",
        "longitude": "108.2174528",
        "vac1": "1",
        "vac2": "1",
        "booster": "0",
        "astrazaneca": "0",
        "pfizer": "0",
        "sinovac": "120",
        "moderna": "0",
        "janssen": "0",
        "sinopharm": "0"
    },
    {
        "id": "50",
        "name": "Sikes Lanud Wiradinata",
        "address": "Sukanagara, Tasikmalaya, West Java, Indonesia",
        "latitude": "-7.334631846",
        "longitude": "108.2379552",
        "vac1": "1",
        "vac2": "1",
        "booster": "1",
        "astrazaneca": "400",
        "pfizer": "0",
        "sinovac": "0",
        "moderna": "0",
        "janssen": "0",
        "sinopharm": "0"
    },
    {
        "id": "51",
        "name": "Klinik BRIGIF 13 Galuh",
        "address": "Kahuripan, Tasikmalaya, West Java, Indonesia",
        "latitude": "-7.343327578",
        "longitude": "108.226914",
        "vac1": "1",
        "vac2": "1",
        "booster": "1",
        "astrazaneca": "500",
        "pfizer": "0",
        "sinovac": "0",
        "moderna": "0",
        "janssen": "0",
        "sinopharm": "0"
    },
    {
        "id": "52",
        "name": "Klinik Kimia Farma Siliwangi GR",
        "address": "Jalan Siliwangi No. 31, Tasikmalaya, West Java 46115, Indonesia",
        "latitude": "-7.348437555",
        "longitude": "108.2213517",
        "vac1": "1",
        "vac2": "1",
        "booster": "0",
        "astrazaneca": "0",
        "pfizer": "0",
        "sinovac": "300",
        "moderna": "0",
        "janssen": "0",
        "sinopharm": "0"
    },
    {
        "id": "53",
        "name": "Klinik Rumkitban",
        "address": "Jl. Perintis Kemerdekaan No. 30, Tasikmalaya, West Java 46126, Indonesia",
        "latitude": "-7.349869304",
        "longitude": "108.2173082",
        "vac1": "1",
        "vac2": "1",
        "booster": "1",
        "astrazaneca": "200",
        "pfizer": "0",
        "sinovac": "0",
        "moderna": "0",
        "janssen": "0",
        "sinopharm": "0"
    },
    {
        "id": "54",
        "name": "RSUD Dr. Soekardjo",
        "address": "Jl. Bb Sirna Rasa No. 25, Tasikmalaya, West Java 46113, Indonesia",
        "latitude": "-7.331174602",
        "longitude": "108.2249517",
        "vac1": "1",
        "vac2": "1",
        "booster": "0",
        "astrazaneca": "0",
        "pfizer": "0",
        "sinovac": "210",
        "moderna": "0",
        "janssen": "0",
        "sinopharm": "0"
    },
    {
        "id": "55",
        "name": "Puskesmas Parakannyasag",
        "address": "Parakannyasag, Tasikmalaya, West Java, Indonesia",
        "latitude": "-7.300599686",
        "longitude": "108.2102711",
        "vac1": "1",
        "vac2": "1",
        "booster": "0",
        "astrazaneca": "0",
        "pfizer": "0",
        "sinovac": "320",
        "moderna": "0",
        "janssen": "0",
        "sinopharm": "0"
    },
    {
        "id": "56",
        "name": "RS Prasetya Bunda",
        "address": "Jalan R.E. Martadainata, Tasikmalaya, West Java, Indonesia",
        "latitude": "-7.303976327",
        "longitude": "108.2052018",
        "vac1": "1",
        "vac2": "1",
        "booster": "0",
        "astrazaneca": "125",
        "pfizer": "0",
        "sinovac": "0",
        "moderna": "0",
        "janssen": "0",
        "sinopharm": "0"
    },
    {
        "id": "57",
        "name": "RS Jasa Kartini",
        "address": "Gg. Pasundan I No. 12, Tasikmalaya, West Java 46113, Indonesia",
        "latitude": "-7.32507186",
        "longitude": "108.2228119",
        "vac1": "1",
        "vac2": "1",
        "booster": "1",
        "astrazaneca": "0",
        "pfizer": "0",
        "sinovac": "400",
        "moderna": "0",
        "janssen": "0",
        "sinopharm": "0"
    },
    {
        "id": "58",
        "name": "Klinik Polres Tasikmalaya Kota",
        "address": "Jl. Perum Sukarindik No. E-41, Tasikmalaya, West Java 46151, Indonesia",
        "latitude": "-7.306955828",
        "longitude": "108.1961955",
        "vac1": "1",
        "vac2": "1",
        "booster": "1",
        "astrazaneca": "350",
        "pfizer": "0",
        "sinovac": "0",
        "moderna": "0",
        "janssen": "0",
        "sinopharm": "0"
    },
    {
        "id": "59",
        "name": "RSU Permata Bunda Kota Tasik",
        "address": "Jl. Brigjen Wasita Kusumah No. 1, Tasikmalaya, West Java 46151, Indonesia",
        "latitude": "-7.287421734",
        "longitude": "108.1961416",
        "vac1": "1",
        "vac2": "1",
        "booster": "1",
        "astrazaneca": "0",
        "pfizer": "0",
        "sinovac": "800",
        "moderna": "0",
        "janssen": "0",
        "sinopharm": "0"
    },
    {
        "id": "60",
        "name": "Puskesmas Sambongpari",
        "address": "Jl. Brigjen Wasita Kusumah No. 1, Tasikmalaya, West Java 46151, Indonesia",
        "latitude": "-7.287421734",
        "longitude": "108.1961416",
        "vac1": "1",
        "vac2": "1",
        "booster": "1",
        "astrazaneca": "0",
        "pfizer": "0",
        "sinovac": "320",
        "moderna": "0",
        "janssen": "0",
        "sinopharm": "0"
    },
    {
        "id": "61",
        "name": "Puskesmas Bantarsari",
        "address": "Bantarsari, Tasikmalaya, West Java, Indonesia",
        "latitude": "-7.322471154",
        "longitude": "108.1839392",
        "vac1": "1",
        "vac2": "1",
        "booster": "0",
        "astrazaneca": "230",
        "pfizer": "0",
        "sinovac": "0",
        "moderna": "0",
        "janssen": "0",
        "sinopharm": "0"
    },
    {
        "id": "62",
        "name": "Puskesmas Urug",
        "address": "Leuwiliang, Tasikmalaya, West Java, Indonesia",
        "latitude": "-7.424673721",
        "longitude": "108.1921202",
        "vac1": "1",
        "vac2": "1",
        "booster": "0",
        "astrazaneca": "0",
        "pfizer": "0",
        "sinovac": "100",
        "moderna": "0",
        "janssen": "0",
        "sinopharm": "0"
    }
]